序號,縣市,機構名稱,機構地址,聯絡電話,藥癮_藥物治療,藥癮_維持治療_美沙冬,藥癮_維持治療_丁基原啡因,藥癮_心理治療,藥癮_家族治療,藥癮_職能治療,藥癮_個案管理,藥癮_生活重建,藥癮_美沙冬跨區給藥,藥癮_美沙冬給藥點,酒癮_藥物治療,酒癮_心理治療,酒癮_家族治療,酒癮_職能治療,酒癮_個案管理,酒癮_生活重建,經度 (lng),緯度 (lat)
1,臺北市,臺北市立聯合醫院（松德院區）,臺北市信義區松德路309號,02-27263141,V,V,V,V,V,V,V,,,,V,V,V,V,V,,121.574884,25.03048
2,臺北市,臺北市立聯合醫院（林森中醫昆明院區）,臺北市萬華區昆明街100號4樓,02-23703739,V,V,V,V,V,V,V,,V,,,,,,,,121.504991,25.044118
3,臺北市,臺北市立聯合醫院（仁愛院區）,臺北市大安區仁愛路四段10號,02-27093600,V,,,V,V,V,V,,,,,,,,,,121.545302,25.03754
4,臺北市,臺北市立聯合醫院（中興院區）,臺北市大同區玉泉里鄭州路145號,02-25523234,V,,,,,,,,,,,,,,,,121.508887,25.050692
5,臺北市,臺北市立聯合醫院（忠孝院區）,臺北市南港區同德路87號,02-27861288,V,,,,,,,,,,,,,,,,121.586157,25.046506
6,臺北市,臺北市立聯合醫院（陽明院區）,臺北市士林區雨聲街105號9樓,02-28353456,V,V,V,V,V,V,V,,,,,,,,,,121.531566,25.105194
7,臺北市,臺北市立聯合醫院（和平婦幼院區）,臺北市中正區中華路二段33號,02-23889595,V,,,,,,,,,,,,,,,,121.506703,25.035591
8,臺北市,國立台灣大學醫學院附設醫院,臺北市中正區中山南路7號,02-23123456,V,,,V,V,V,V,,,,V,V,V,,,,121.518558,25.040776
9,臺北市,三軍總醫院北投分院附設民眾診療服務處,臺北市北投區林泉里新民路60號,02-28959808,V,V,V,V,V,V,V,,V,,,,,,,,121.509701,25.139804
10,臺北市,三軍總醫院附設民眾診療服務處,臺北市內湖區成功路2段325號,02-87923311,V,,V,V,V,V,V,V,,,V,V,V,V,V,V,121.591982,25.0718
11,臺北市,臺北榮民總醫院,臺北市北投區石牌路二段201號,02-28757027,,,,,,,,,,,V,V,V,V,V,,121.519166,25.119181
12,臺北市,臺北市立關渡醫院（委託臺北榮民總醫院經營）,臺北市北投區知行路225巷12號,02-28587000,,,,,,,,,,,V,V,V,V,V,V,121.466358,25.120187
13,臺北市,長庚醫療財團法人臺北長庚紀念醫院,臺北市松山區敦化北路199號,02-27135211,,,,,,,,,,,V,,,,V,,121.549618,25.055508
14,臺北市,基督復臨安息日會醫療財團法人臺安醫院,臺北市松山區八德路二段424,02-27718151,,,,,,,,,,,V,,,,,,121.547276,25.048052
15,臺北市,國泰醫療財團法人國泰綜合醫院,臺北市大安區仁愛路四段280號,02-26482121,V,,,V,V,V,V,,,,V,V,V,V,V,,121.553693,25.036942
16,臺北市,台灣基督長老教會馬偕醫療財團法人馬偕紀念醫院,臺北市中山區中山北路二段92號,02-25433535,,,,,,,,,,,V,V,V,,V,,121.522558,25.058883
17,臺北市,新光醫療財團法人新光吳火獅紀念醫院,臺北市士林區文昌路95號,02-28332211,V,,,V,V,,V,,,,V,V,V,,V,,121.520289,25.09624
18,臺北市,臺北醫學大學附設醫院,臺北市信義區吳興街252號,02-27372181,V,,,V,V,V,V,,,,V,V,V,V,V,,121.563638,25.026637
19,臺北市,臺北市立萬芳醫院（委託臺北醫學大學辦理）,臺北市文山區興隆路三段111號,02-29307930,V,,,V,V,V,V,,,,V,V,V,V,V,,121.55833,25.000305
20,臺北市,李政洋身心診所,臺北市松山區三民路84號、健康路345號,02-27620086,,,,,,,,,,,V,V,V,,V,,121.563837,25.056502
21,臺北市,交感身心診所,臺北市大安區信義路四段143號4樓,02-77306840,V,,,V,V,,V,V,,,V,V,V,,V,V,121.549612,25.033456
22,臺北市,開馨診所,臺北市南港區南港路二段38巷6-1號1樓,02-26532987,,,,V,,,,,,,,,,,,,121.604802,25.054701
23,臺北市,中崙諮商中心心理諮商所,臺北市大安區忠孝東路三段54號,02-27319731,,,,,,,,,,,,V,V,,V,,121.535562,25.041727
24,臺北市,利伯他茲心理諮商所,臺北市文山區明義里木柵路二段62號2樓,02-29361183,,,,V,V,,V,,,,,V,V,,V,,121.559248,24.988631
25,臺北市,以賽亞心理諮商所,臺北市中山區吉林路231號3樓,0933569611,,,,V,V,,,,,,,V,V,,,,121.530376,25.060921
26,新北市,新北市立聯合醫院（三重院區）,新北市三重區新北大道一段3號,02-29829111,V,V,V,V,V,,V,,V,,V,V,V,,,,121.49084,25.060869
27,新北市,新北市立聯合醫院（板橋院區）,新北市板橋區英士路198號,02-29829111,V,V,V,V,V,,V,,V,,V,V,V,,,,121.457708,25.023683
28,新北市,衛生福利部樂生醫院,新北市新莊區中正路794號,02-82006600,V,V,,,,,V,,V,,,,,,,,121.409851,25.021622
29,新北市,衛生福利部臺北醫院,新北市新莊區思源路127號,02-22765566,V,V,V,V,V,V,V,,,,,,,,,,121.459622,25.04324
30,新北市,衛生福利部八里療養院,新北市八里區華富山33號,02-26101660,V,V,V,V,V,V,V,,,,V,V,V,V,V,,121.416,25.1311
31,新北市,醫療財團法人徐元智先生醫藥基金會亞東紀念醫院,新北市板橋區南雅南路二段21號,02-89667000,V,V,V,V,V,V,V,,V,,V,V,V,V,V,,121.452312,24.997312
32,新北市,佛教慈濟醫療財團法人臺北慈濟醫院,新北市新店區建國路289號,02-66289779,V,,,V,V,V,V,,,,V,V,V,V,V,,121.535808,24.98578
33,新北市,行天宮醫療志業醫療財團法人恩主公醫院,新北市三峽區復興路399號,02-26723456,,V,V,V,,V,V,,V,,,,,,,,121.363007,24.938385
34,新北市,臺灣基督長老教會馬偕醫療財團法人淡水馬偕紀念醫院,新北市淡水區民生路45號,02-28094661,V,,V,V,,,V,,,,V,V,V,,V,,121.460499,25.139534
35,新北市,國泰醫療財團法人汐止國泰綜合醫院,新北市汐止區建成路59巷2號,02-26482121,V,,,V,V,V,V,,,,V,V,V,V,V,,121.661084,25.072872
36,新北市,新北市立土城醫院（委託長庚醫療財團法人興建經營）,新北市土城區金城路二段6號,02-22630588,V,,V,V,V,V,,,,,,,,,,,121.44873,24.976437
37,新北市,天主教耕莘醫療財團法人耕莘醫院,新北市新店區百和里中正路362號,02-22193391,V,V,V,V,V,V,V,,V,,V,V,V,,V,,121.535619,24.976084
38,新北市,衛生福利部雙和醫院（委託臺北醫學大學興建經營）,新北市中和區中正路291號,02-22490088,V,,V,V,V,V,,,,,V,V,V,V,,,121.494082,24.993746
39,新北市,輔仁大學學校財團法人輔仁大學附設醫院,新北市泰山區貴賢里9鄰貴子路69號,02-85128888,,,,,,,,,,,V,V,,V,,,121.430798,25.039676
40,新北市,安興精神科診所,新北市三重區重新路三段132號1樓,02-29743029,V,,V,V,V,,V,,,,V,V,V,,V,,121.491693,25.059788
41,新北市,楊聰才診所,新北市新店區中興路二段239號2樓,02-29181299,,,,,,,,,,,V,V,V,,V,,121.547304,24.975276
42,新北市,恆友精神科診所,新北市新莊區幸福東路135號,02-29907909,V,,V,V,V,,V,,,,V,V,V,,V,,121.46089,25.04934
43,基隆市,南光神經精神科醫院,基隆市安樂區基金一路91號,02-24310023,,,,,,,,,,,,V,,,,,121.718563,25.138297
44,基隆市,衛生福利部基隆醫院,基隆市信義區信二路268號,02-24292525,V,V,V,V,,,V,,V,,,,,,,,121.748322,25.130455
45,基隆市,維德醫療社團法人基隆維德醫院,基隆市中正區調和街210號,02-24696688,V,,V,V,V,V,V,,,,V,V,V,V,V,,121.799077,25.130445
46,基隆市,長庚醫療財團法人基隆長庚紀念醫院,基隆市安樂區新崙里基金一路208巷200號,02-24329292,V,V,,V,,,V,,V,,,V,,V,V,,121.707717,25.148064
47,基隆市,暘基醫院,基隆市安樂區基金一路129巷8號,02-24322522,,,,,,,,,,,V,V,V,V,V,,121.714534,25.138992
48,桃園市,衛生福利部桃園醫院,桃園市桃園區中山路1492號,03-3699721,V,,V,V,V,V,V,,,,V,V,V,V,V,,121.268092,24.977705
49,桃園市,衛生福利部桃園療養院,桃園市桃園區龍壽街71號,03-3698553,V,V,V,V,V,V,V,,V,,V,V,V,V,V,,121.268176,24.979272
50,桃園市,國軍桃園總醫院附設民眾診療服務處,桃園市龍潭區中興里中興路168號,03-4799595,,V,V,V,,,V,,V,,,,,,,,121.234977,24.874464
51,桃園市,臺北榮民總醫院桃園分院,桃園市桃園區成功路三段100號,03-3384889,V,V,,V,V,V,V,,V,,V,V,V,V,V,,121.325315,25.003741
52,桃園市,長庚醫療財團法人林口長庚紀念醫院,桃園市龜山區公西里復興街5號,03-3281200,V,,V,V,,,V,,,,V,V,,,V,,121.367317,25.061318
53,桃園市,敏盛綜合醫院,桃園市桃園區經國路168號,03-3179599,V,,,V,,,,,,,,,,,,,121.306174,25.016313
54,桃園市,居善醫院,桃園市大園區南港里大觀路910號,03-3866511,V,,V,V,,V,,,,,,V,,,,,121.165643,25.058696
55,桃園市,周孫元診所,桃園市桃園區龍安里龍城五街62號,03-3792260,,,V,V,,,V,,,,,,,,,,121.269831,24.980099
56,桃園市,新楊梅診所,桃園市楊梅區環東路476號,03-4856530,,,V,,,,,,,,,,,,,,121.15683,24.910416
57,桃園市,廢墟花園心理諮商所,桃園市桃園區大有路632號2F,"03-3334-889
0911-609099",,,,,,,,,,,,V,V,,V,,121.317082,25.015546
58,桃園市,桃園市大園區衛生所,桃園市大園區田心里中正西路19號,03-3862024,,V,,,,,,,,V,,,,,,,121.195483,25.063355
59,桃園市,桃園市觀音區衛生所,桃園市觀音區觀新路58號,03-4732031,,"V
114.9.1起暫停",,,,,,,,"V
114.9.1起暫停",,,,,,,121.083751,25.027823
60,桃園市,桃園市大溪區衛生所,桃園市大溪區仁愛路1號,03-3882401,,V,,,,,,,,V,,,,,,,121.285576,24.884533
61,新竹縣,國立臺灣大學醫學院附設醫院新竹臺大分院生醫醫院竹東院區,新竹縣竹東鎮至善路52號,03-5943248,V,V,V,V,,,V,,V,,V,,,,V,,121.09356,24.718675
62,新竹縣,臺北榮民總醫院新竹分院,新竹縣竹東鎮中豐路一段81號,03-5962134,,,,V,,,V,,,,,,,,,,121.099575,24.722702
63,新竹縣,天主教仁慈醫療財團法人仁慈醫院,新竹縣湖口鄉孝勢村忠孝路29號,03-5993500,V,,V,V,V,V,V,,,,,,,,,,121.045458,24.900558
64,新竹縣,中國醫藥大學新竹附設醫院,新竹縣竹北市興隆路一段199號,03-5580558,V,,,V,,,V,,,,,,,,,,121.001988,24.824037
65,新竹市,國立臺灣大學醫學院附設醫院新竹臺大分院新竹醫院,新竹市北區金華里經國路一段442巷25號,03-5326151,V,V,V,V,V,V,V,V,V,,V,V,V,V,V,V,120.980615,24.815873
66,新竹市,國軍桃園總醫院新竹分院附設民眾診療服務處,新竹市北區武陵路3號,0972765931,V,,V,V,V,V,V,,,,V,V,V,V,V,,120.962391,24.815372
67,新竹市,林正修診所,新竹市東區新光路38號,03-5166746,V,,V,V,V,,V,V,,,V,V,V,,V,V,120.98869,24.801973
68,苗栗縣,衛生福利部苗栗醫院,苗栗縣苗栗市為公路747號,03-7261920,V,V,,V,V,V,V,,V,,V,V,,,,,120.840405,24.575655
69,苗栗縣,大千醫療社團法人南勢醫院,苗栗縣苗栗市南勢里南勢52號,03-7369936,V,,V,V,,V,V,,,,,V,,,,,120.791,24.522
70,苗栗縣,為恭醫療財團法人為恭紀念醫院,苗栗縣頭份市信義路128號,03-7676811,V,V,V,V,V,V,V,,V,,V,V,V,V,V,,120.907345,24.687096
71,苗栗縣,李綜合醫療社團法人苑裡李綜合醫院,苗栗縣苑裡鎮和平路168號,03-7862387,V,V,,,,,,,,,,,,,,,120.65272,24.44182
72,臺中市,衛生福利部臺中醫院,臺中市西區三民路一段199號,04-22294411,V,V,V,V,V,V,V,,V,,V,V,V,V,V,,120.675711,24.140225
73,臺中市,衛生福利部豐原醫院,臺中市豐原區安康路100號,04-25271180,V,V,,V,,V,V,,,,V,V,V,V,V,,120.725292,24.242706
74,臺中市,國軍臺中總醫院附設民眾診療服務處,臺中市太平區中山路二段348號,04-23934191,,V,,V,,,V,,V,,,,,,,,120.730101,24.150814
75,臺中市,臺中榮民總醫院,臺中市西屯區臺灣大道四段1650號,04-23592525,V,V,V,V,V,V,V,,V,,V,V,V,V,V,,120.604647,24.184298
76,臺中市,維新醫療社團法人臺中維新醫院,臺中市北區育德路185號,04-22038585,V,V,V,V,V,V,V,V,V,,V,V,V,V,V,V,120.672319,24.157138
77,臺中市,光田醫療社團法人光田綜合醫院（大甲院區）,臺中市大甲區新美里經國路321號,04-26885599,V,V,,V,V,V,V,V,,,V,,,,V,,120.616657,24.346578
78,臺中市,童綜合醫療社團法人童綜合醫院,臺中市沙鹿區成功西街8號,04-26626161,V,V,V,V,V,V,V,,V,,V,V,V,V,V,,120.560576,24.242944
79,臺中市,佛教慈濟醫療財團法人臺中慈濟醫院,臺中市潭子區豐興路一段66號,04-36060666,V,V,V,V,,,V,,V,,,,,,,,120.720344,24.193856
80,臺中市,中山醫學大學附設醫院,臺中市南區建國北路一段110號,04-24739595,V,"V
(僅供住院患者)",,V,V,V,V,,,,V,V,V,V,V,,120.6499,24.121753
81,臺中市,中山醫學大學附設醫院中興分院,臺中市南區復興路二段11號,04-22621652,V,V,V,V,V,V,V,,V,,,,,,,,120.658559,24.118123
82,臺中市,中國醫藥大學附設醫院,臺中市北區育德路2號,04-22052121,V,V,V,V,V,V,V,,V,,V,V,V,V,V,,120.680049,24.157212
83,臺中市,財團法人台灣省私立台中仁愛之家附設靜和醫院,臺中市西區吉龍里南屯路一段158號,04-23711129,V,,V,V,V,V,V,,,,V,V,V,V,V,,120.659415,24.133717
84,臺中市,宏恩醫院龍安分院,臺中市南區德富路145巷2號,04-37017188,,,,,,,,,,,,V,V,V,V,,120.655282,24.11934
85,臺中市,澄清綜合醫院中港分院,臺中市西屯區臺灣大道四段966號,04-24632000,V,,V,V,,,,,,,V,V,,,V,,120.617033,24.182853
86,臺中市,陽光精神科醫院,臺中市清水區大楊南街98號,04-26202949,V,,,,V,V,V,,,,,,,,,,120.609232,24.281127
87,臺中市,清濱醫院,臺中市清水區海濱里港埠路四段195號,04-26283995,,,,,,,,,,,V,V,,,V,,120.548884,24.283123
88,臺中市,清海醫院,臺中市石岡區金星里石岡街下坑巷41-2號,04-25721694,,,,,,,,,,,V,V,V,V,V,,120.774147,24.25123
89,臺中市,賢德醫院,臺中市太平區宜昌路420號,04-22732551,V,V,V,V,V,V,V,V,V,,V,V,V,V,V,V,120.714087,24.145092
90,臺中市,新活力診所,臺中市沙鹿區中山路493之2號,04-26622395,V,,V,V,V,,V,,,,,,,,,,120.56231,24.24631
91,臺中市,廖慈凰身心診所,臺中市西區博館路115號2樓,04-23255018,V,,,V,V,,V,,,,V,V,V,,V,,120.665308,24.156364
92,臺中市,詹東霖心身診所,臺中市中區三民路二段11號,04-22256362,V,,V,V,,,,,,,,,,,,,120.677432,24.140632
93,臺中市,人文傳習書院博雅心理治療所,台中市西區華美西街一段160號,04-23134566,,,,V,V,,,,,,,,,,,,120.661641,24.158384
94,臺中市,一心心理諮商所,臺中市北區華中街25號,04-22075313,,,,V,V,,,,,,,,,,,,120.671932,24.156821
95,臺中市,芙樂奇心理成長心理諮商所,臺中市北屯區平福里大連路二段213號,04-24723216,,,,V,,,,,,,,,,,,,120.687805,24.175737
96,臺中市,耕心心理諮商所,臺中市南屯區大墩南路412號,0912622789,,,,V,V,,,,,,,,,,,,120.650203,24.133953
97,臺中市,財團法人台中市私立慈光社會福利慈善事業基金會附設慈光社區心理諮商所,台中市東區東英五街88號2樓,04-22153505,,,,V,V,,,,,,,,,,,,120.704432,24.136192
98,臺中市,臺中市石岡區衛生所,臺中市石岡區萬安里石岡街6號,04-25721887,,V,,,,,,,,V,,,,,,,120.777573,24.276012
99,臺中市,臺中市大肚區衛生所,臺中市大肚區頂街里榮華街1號,04-26992111,,V,,,,,,,,V,,,,,,,120.544787,24.15509
100,彰化縣,衛生福利部彰化醫院,彰化縣埔心鄉舊館村中正路二段80號,04-8298686,V,V,V,V,V,,V,,V,,V,V,V,,V,,120.527299,23.950225
101,彰化縣,秀傳醫療社團法人秀傳紀念醫院,彰化縣彰化市南瑤里中山路一段542號,04-7256166,V,V,V,V,,,V,,V,,V,V,,,V,,120.537508,24.064786
102,彰化縣,彰化基督教醫療財團法人彰化基督教醫院,彰化縣彰化市南校街135號,04-7238595,V,V,V,V,V,,V,,V,,V,V,V,,V,,120.544461,24.07149
103,彰化縣,秀傳醫療財團法人彰濱秀傳紀念醫院,彰化縣鹿港鎮鹿工路6號,04-7813888,V,,,V,,,V,,,,V,V,,,V,,120.41112,24.078274
104,彰化縣,彰化基督教醫療財團法人鹿東基督教醫院,彰化縣鹿港鎮鹿東路二段888號,04-7789595,V,V,V,V,,,V,,V,,V,,,,,,120.468512,24.055645
105,彰化縣,彰化基督教醫療財團法人二林基督教醫院,彰化縣二林鎮南光里大成路一段558號,04-8952031,V,V,V,,,V,V,,V,,V,,,,,,120.363344,23.893608
106,彰化縣,敦仁醫院,彰化縣員林市振興里員水路一段102巷74弄99號,04-7071727,V,,,V,,,V,,,,V,V,,,,,120.60465,23.951467
107,彰化縣,芙樂奇心理諮商所,彰化縣員林市新生里南和街64號,04-8346028,,,,V,,,,,,,,,,,,,120.567061,23.958088
108,南投縣,衛生福利部南投醫院,南投縣南投市康壽里復興路478號,049-2231150,,V,,V,V,V,V,,V,,V,V,,V,V,,120.685294,23.914093
109,南投縣,衛生福利部草屯療養院,南投縣草屯鎮玉屏路161號,049-2550800,V,V,V,V,V,V,V,V,V,,V,V,V,V,V,V,120.704532,23.990395
110,南投縣,臺中榮民總醫院埔里分院,南投縣埔里鎮蜈蚣里榮光路1號,049-2990833,,V,V,V,,V,V,,V,,,,,,,,120.99681,23.975802
111,南投縣,埔基醫療財團法人埔里基督教醫院,南投縣埔里鎮鐵山里鐵山路1號,049-2912151,,,,,,,,,,,,V,,,V,,120.947624,23.971594
112,南投縣,唯聆心理治療,南投縣草屯鎮仁愛街270號 ,0958797012,,,,V,,,,,,,,,,,,,120.678079,23.98467
113,南投縣,南投縣鹿谷鄉衛生所,南投縣鹿谷鄉中正路二段20號,049-2752002,,V,,,,,,,,V,,,,,,,120.754245,23.744882
114,南投縣,南投縣魚池鄉衛生所,南投縣魚池鄉東池村魚池街194號,049-2895513,,V,,,,,,,,V,,,,,,,120.941269,23.895524
115,南投縣,南投縣國姓鄉衛生所,南投縣國姓鄉國姓村民族街42號,049-2721009,,V,,,,,,,,V,,,,,,,120.854679,24.037882
116,南投縣,南投縣水里鄉衛生所,南投縣水里鄉博愛路205號,049-2770079,,V,,,,,,,,V,,,,,,,120.848971,23.810497
117,南投縣,南投縣信義鄉衛生所,南投縣信義鄉明德村玉山路45號,049-2791148,,V,,,,,,,,V,,,,,,,120.85472,23.696529
118,南投縣,南投縣仁愛鄉衛生所,南投縣仁愛鄉五福巷17號,049-2802341,,V,,,,,,,,V,,,,,,,121.134409,24.024478
119,雲林縣,國立臺灣大學醫學院附設醫院雲林分院,雲林縣斗六市雲林路二段579號,05-5323911,V,V,V,V,V,V,V,,V,,V,V,V,V,V,,120.525929,23.697662
120,雲林縣,國立成功大學醫學院附設醫院斗六分院,雲林縣斗六市莊敬路345號,05-5332121,V,V,,V,V,V,V,,V,,,,,,,,120.545625,23.703133
121,雲林縣,信安醫療社團法人信安醫院,雲林縣斗六市江厝里瓦厝路159號,05-5223788,V,,V,,,,,,,,V,V,V,V,V,,120.511264,23.668634
122,雲林縣,天主教若瑟醫療財團法人若瑟醫院,雲林縣虎尾鎮新生路74號,05-6337333,V,V,V,V,V,V,V,,V,,,V,V,,V,,120.437886,23.708214
123,雲林縣,中國醫藥大學北港附設醫院,雲林縣北港鎮新街里新德路123號,05-7837901,V,V,V,V,V,V,V,,V,,V,V,V,V,V,,120.30782,23.591763
124,雲林縣,何正岳診所,雲林縣斗六市鎮西里建成路115號,05-5328680,V,,V,,,,,,,,,,,,,,120.5336,23.703778
125,雲林縣,廖寶全診所,雲林縣虎尾鎮東仁里東明路182號,05-6322584,V,,V,V,V,,V,,,,,,,,,,120.43971,23.714759
126,雲林縣,諸元內科醫院,雲林縣北港鎮中山路125號,05-7832068,,,,,,,,,,,V,,,,V,,120.304584,23.566801
127,雲林縣,雲林縣林內鄉衛生所,雲林縣林內鄉新興路54號,05-5892273,,V,,,,,,,,V,,,,,,,120.612548,23.759914
128,雲林縣,雲林縣麥寮鄉衛生所,雲林縣麥寮鄉新興路8-1號,05-6932268,,V,,,,,,,,V,,,,,,,120.251653,23.745923
129,雲林縣,雲林縣二崙鄉衛生所,雲林縣二崙鄉中興路9號,05-5981004,,V,,,,,,,,V,,,,,,,120.412634,23.771872
130,嘉義縣,衛生福利部朴子醫院,嘉義縣朴子市永和里42-50號,05-3790600,V,V,V,V,,V,V,,V,,V,V,,V,V,,120.233813,23.464229
131,嘉義縣,臺中榮民總醫院灣橋分院,嘉義縣竹崎鄉灣橋村石麻園38號,05-2791072,V,V,V,V,V,V,V,,V,,V,V,V,V,V,,120.50638,23.48778
132,嘉義縣,長庚醫療財團法人嘉義長庚紀念醫院,嘉義縣朴子市嘉朴路西段8號,05-3621000,,,,,,,,,,,V,V,V,V,V,,120.286068,23.46272
133,嘉義縣,佛教慈濟醫療財團法人大林慈濟醫院,嘉義縣大林鎮平林里民生路2號,05-2648000,V,,V,V,,V,V,,,,V,V,,,,,120.457449,23.596312
134,嘉義縣,嘉義縣東石鄉衛生所,嘉義縣東石鄉東石村3-7號,05-3732340,,V,,,,,,,,V,,,,,,,120.154086,23.459259
135,嘉義市,衛生福利部嘉義醫院,嘉義市西區福全里北港路312號,05-2319090,V,V,,V,,V,V,,,,V,V,,,,,120.4308,23.479849
136,嘉義市,臺中榮民總醫院嘉義分院,嘉義市西區劉厝里世賢路二段600號,05-2359630,V,V,V,V,V,V,V,,V,,V,V,,,V,,120.42297,23.467549
137,嘉義市,戴德森醫療財團法人嘉義基督教醫院,嘉義市東區忠孝路539號,05-2765041,,,,,,,,,,,V,V,V,V,V,,120.45005,23.4994
138,嘉義市,天主教中華聖母修女會醫療財團法人天主教聖馬爾定醫院,嘉義市民權路60號,05-2780040,,,,,,,,,,,V,V,V,,V,,120.46148,23.48418
139,嘉義市,陽明醫院,嘉義市東區吳鳯北路252號,05-2252000,,,,,,,,,,,V,V,V,,V,,120.45319,23.48057
140,臺南市,衛生福利部臺南醫院,臺南市中西區中山路125號,06-2200055,V,V,,V,V,V,V,,,,,,,,,,120.209228,22.995819
141,臺南市,衛生福利部新營醫院,臺南市新營區忠政里信義街73號,06-6351131,V,V,V,V,V,V,V,,V,,,,,,,,120.313203,23.309154
142,臺南市,衛生福利部嘉南療養院,臺南市仁德區裕忠路539號,06-2795019,V,V,V,V,V,V,V,,V,,V,V,V,V,V,,120.241951,22.976718
143,臺南市,國立成功大學醫學院附設醫院,臺南市北區勝利路138號,06-2353535,V,V,V,V,V,V,V,,V,,V,V,V,V,V,,120.21923,23.00221
144,臺南市,高雄榮民總醫院臺南分院,臺南市永康區復興路427號,06-3125101,V,,,V,V,V,V,,,,,,,,,,120.240316,22.997218
145,臺南市,臺南市立醫院（委託秀傳醫療社團法人經營）,臺南市東區崇德路670號,06-2609926,V,V,,V,V,V,V,V,,,,,,,,,120.226743,22.968534
146,臺南市,奇美醫療財團法人柳營奇美醫院,臺南市柳營區太康里201號,06-6226999,V,,V,V,V,V,,,,,V,V,V,V,,,120.324705,23.289269
147,臺南市,奇美醫療財團法人奇美醫院,臺南市永康區中華路901號,06-2228116,,,,,,,,,,,V,V,V,V,V,,120.221897,23.020606
148,臺南市,奇美醫療財團法人奇美醫院(樹林院區),臺南市南區樹林街二段442號,06-2228116,V,V,V,V,V,V,V,,V,,V,V,V,V,V,,120.196111,22.986581
149,臺南市,臺南市立安南醫院（委託中國醫藥大學興建經營）,臺南市安南區長和路二段66號,06-3553111,V,V,V,V,,,V,,,,V,,,,,,120.223192,23.064232
150,臺南市,郭綜合醫院,臺南市中西區 民生路二段22號,06-2221111,V,,V,V,,,V,,,,,,,,,,120.198504,22.994862
151,臺南市,心樂活診所,臺南市東區凱旋路39號,06-2383636,V,,V,,,,,,,,,,,,,,120.230331,22.992968
152,臺南市,臺南市鹽水區衛生所,臺南市鹽水區武廟路1號,06-6521041,,V,,,,,,,,V,,,,,,,120.265297,23.320245
153,臺南市,臺南市東山區衛生所,臺南市東山區東山里236號,06-6802618,,V,,,,,,,,V,,,,,,,120.404723,23.326329
154,臺南市,臺南市官田區衛生所,臺南市官田區隆田里中山路一段128號,06-5791493,,V,,,,,,,,V,,,,,,,120.3161,23.193068
155,臺南市,臺南市將軍區衛生所,臺南市將軍區忠嘉里忠興185-6號,06-7942007,,V,,,,,,,,V,,,,,,,120.1632603,23.2018481
156,臺南市,臺南市關廟區衛生所,臺南市關廟區山西里中正路1000號,06-5952395,,V,,,,,,,,V,,,,,,,120.327248,22.963028
157,臺南市,臺南市玉井區衛生所,臺南市玉井區中正路5號,06-5742275,,V,,,,,,,,V,,,,,,,120.459103,23.12235
158,高雄市,高雄市立聯合醫院,高雄市鼓山區中華一路976號,07-5552565,V,,V,V,V,V,V,,,,,,,,,,120.291698,22.654924
159,高雄市,高雄市立凱旋醫院,高雄市苓雅區凱旋二路130號,07-7513171,V,V,V,V,,V,V,,V,,V,V,V,V,V,,120.324271,22.62519
160,高雄市,衛生福利部旗山醫院,高雄市旗山區大德里中學路60號,07-6613811,V,V,V,V,V,V,V,,V,,V,V,,,V,,120.483277,22.880693
161,高雄市,國軍左營總醫院附設民眾診療服務處,高雄市左營區合群里30鄰軍校路553號,07-5817121,V,V,,,,,,,V,,,,,,,,120.292231,22.700351
162,高雄市,國軍高雄總醫院附設民眾診療服務處,高雄市苓雅區建軍路5號,07-7496779,V,V,V,V,V,V,V,,V,,V,V,V,V,V,,120.341937,22.626055
163,高雄市,高雄榮民總醫院,高雄市左營區大中一路386號,07-3422121,V,V,V,V,V,V,V,,V,,,,,,,,120.322256,22.677696
164,高雄市,阮綜合醫療社團法人阮綜合醫院,高雄市苓雅區成功一路162號,07-2692589,V,V,,V,,,V,,V,,,,,,,,120.297377,22.615583
165,高雄市,高雄市立小港醫院（委託財團法人私人高雄醫學大學經營）,高雄市小港區山明里山明路482號B1-10樓,07-8036783,V,V,,V,V,V,V,,V,,V,V,V,V,V,,120.363369,22.567467
166,高雄市,長庚醫療財團法人高雄長庚紀念醫院,高雄市鳥松區大埤路123號,07-7317123,V,V,V,V,V,V,V,,V,,V,V,V,,V,,120.356029,22.649847
167,高雄市,義大醫療財團法人義大醫院,高雄市燕巢區角宿里義大路1號,07-6150011,V,V,V,V,V,V,V,,V,,,,,,,,120.364451,22.765521
168,高雄市,財團法人私立高雄醫學大學附設中和紀念醫院,高雄市三民區十全一路100號,07-3121101,V,V,V,V,V,V,V,,V,,V,V,V,V,V,,120.310001,22.645178
169,高雄市,財團法人台灣省私立高雄仁愛之家附設慈惠醫院,高雄市大寮區後庄里鳳屏一路509號,07-7030315,V,V,V,V,V,,V,,V,,V,V,V,V,V,,120.397505,22.639236
170,高雄市,樂安醫院,高雄市岡山區後協里通校路300號,07-6256791,V,,V,V,,,V,,,,V,V,,,,,120.281156,22.792445
171,高雄市,陽光診所,高雄市左營區自由三路176號2樓,07-3412598,V,,V,,,,,,,,,,,,,,120.311359,22.671741
172,高雄市,幸生診所,高雄市新興區華聲里民生一路240號,07-2151357,V,,V,,,,V,,,,,,,,,,120.306974,22.627825
173,高雄市,靜安診所,高雄市苓雅區大順三路197號1樓,07-2239025,V,,V,,,,,,,,,,,,,,120.326121,22.634671
174,高雄市,維心診所,高雄市岡山區岡山路314號,07-6231829,V,,V,,,,,,,,,,,,,,120.29601,22.793731
175,高雄市,心托邦心理治療所,高雄市苓雅區中正二路131號,0983769055,,,,V,V,,,,,,,,,,,,120.315548,22.630178
176,高雄市,高雄市立岡山醫院（委託秀傳醫療社團法人經營）,高雄市岡山區壽天路12號,07-6222131,V,V,,,,,,,,,V,,,,V,,120.294443,22.796612
177,高雄市,高雄市立旗津醫院（委託財團法人私立高雄醫學大學經營）,高雄市旗津區旗港路33號,07-5711188,,V,,,,,,,,V,,V,V,V,V,V,120.285113,22.590209
178,高雄市,高雄市立鳳山醫院（委託長庚醫療財團法人經營）,高雄市鳳山區經武路42號、42-1號,07-7418151,,,,,,,,,,,V,V,,,V,,120.362776,22.629017
179,高雄市,耕心療癒診所,高雄市左營區曾子路332號1樓,07-3592011,,,,,,,,,,,,V,V,,,,120.306861,22.680174
180,高雄市,冬勝診所,高雄市苓雅區中正一路472號,07-7278392,,,,,,,,,,,V,V,V,,V,,120.323795,22.630047
181,屏東縣,衛生福利部屏東醫院,屏東縣屏東市自由路270號,08-7363011,V,V,V,V,V,V,V,,V,,,,,,,,120.495546,22.673264
182,屏東縣,國軍高雄總醫院屏東分院附設民眾診療服務處,屏東縣屏東市大湖路58巷22號,08-7560756,V,,,V,,V,V,,,,V,V,,V,V,,120.487574,22.633503
183,屏東縣,屏東榮民總醫院龍泉分院,屏東縣內埔鄉龍潭村昭勝路安平1巷1號,08-7704115,V,V,,V,V,,V,,,,,,,,,,120.599009,22.674418
184,屏東縣,安泰醫療社團法人安泰醫院,屏東縣東港鎮興東里中正路一段210號,08-8329966,V,V,V,V,,,V,V,V,,V,V,,,V,,120.459127,22.474326
185,屏東縣,屏安醫療社團法人屏安醫院,屏東縣麟洛鄉中山路160-1號,08-7211777,V,V,V,V,V,V,V,,V,,V,V,V,V,V,,120.528129,22.650428
186,屏東縣,佑青醫療財團法人佑青醫院,屏東縣內埔鄉建興村建興路218巷19號,08-7705115,V,,,V,V,V,V,,,,V,V,V,V,V,,120.567556,22.66607
187,屏東縣,迦樂醫療財團法人迦樂醫院,屏東縣新埤鄉箕湖村進化路12之200號,0985652350,V,,V,V,V,V,V,V,,,V,V,V,V,V,V,120.615204,22.463215
188,屏東縣,輔英科技大學附設醫院,屏東縣東港鎮中山路5號,08-8323146,V,V,,V,V,,V,,,,V,V,V,,V,,120.452734,22.465198
189,屏東縣,枋寮醫療社團法人枋寮醫院,屏東縣枋寮鄉中山路139號,08-8789991,,V,,,,,,,,V,,,,,,,120.596293,22.364024
190,屏東縣,衛生福利部恆春旅遊醫院,屏東縣恆春鎮恒南路168號,08-8892704,,V,,,,,,,,V,,,,,,,120.74482,21.998414
191,屏東縣,瑞興診所,屏東縣屏東市瑞光路二段250號2樓,08-7378888,V,,V,V,,,V,,,,V,V,,,V,,120.507509,22.678934
192,屏東縣,屏安醫療社團法人興安診所,屏東縣屏東市自由路463號,08-7346666,V,,V,V,,,V,,,,,,,,,,120.491986,22.6827
193,屏東縣,寬心診所,屏東縣屏東市中山路40號,08-7333555,V,,V,V,,,V,,,,,,,,,,120.486537,22.671643
194,屏東縣,泰祥診所,屏東縣潮州鎮新生路111號,08-7881777,V,,V,V,,,V,,,,,,,,,,120.538509,22.551186
195,屏東縣,屏東縣萬丹鄉衛生所,屏東縣萬丹鄉萬丹路一段501號,08-7772049,,V,,,,,,,,V,,,,,,,120.488551,22.594946
196,屏東縣,屏東縣鹽埔鄉衛生所,屏東縣鹽埔鄉勝利路187號,08-7932474,,V,,,,,,,,V,,,,,,,120.578616,22.760308
197,屏東縣,屏東縣高樹鄉衛生所,屏東縣高樹鄉南昌路12之2號,08-7962026,,V,,,,,,,,V,,,,,,,120.594296,22.817079
198,屏東縣,屏東縣獅子鄉衛生所,屏東縣獅子鄉楓林村2巷31號,08-8771324,,V,,,,,,,,V,,,,,,,120.6975,22.2105
199,宜蘭縣,國立陽明交通大學附設醫院,宜蘭縣宜蘭市新民路152號,03-9325192,V,V,V,V,V,V,V,V,V,,V,V,V,V,V,V,121.754029,24.757853
200,宜蘭縣,臺北榮民總醫院蘇澳分院,宜蘭縣蘇澳鎮蘇濱路一段301號,03-9905106,V,V,V,V,V,V,V,V,,,V,V,V,V,V,V,121.848611,24.614096
201,宜蘭縣,臺北榮民總醫院員山分院,宜蘭縣員山鄉榮光路386號,03-9222141,V,,,V,V,V,V,V,,,V,V,V,,V,V,121.687824,24.721919
202,宜蘭縣,醫療財團法人羅許基金會羅東博愛醫院,宜蘭縣羅東鎮南昌街83號,03-9543131,V,V,V,V,V,V,V,V,V,,V,V,V,V,V,V,121.771407,24.671783
203,宜蘭縣,天主教靈醫會醫療財團法人羅東聖母醫院,宜蘭縣羅東鎮中正南路160號,03-9544106,V,V,V,V,V,V,V,V,V,,V,V,V,V,V,V,121.770714,24.671434
204,宜蘭縣,宜蘭縣頭城鎮衛生所,宜蘭縣頭城鎮吉祥路15號,03-9771034,,V,,,,,,,,V,,,,,,,121.820549,24.856759
205,花蓮縣,衛生福利部花蓮醫院,花蓮縣花蓮市中正路600號,03-8358141,V,V,,V,V,V,V,,,,V,V,V,V,V,,121.61118,23.979479
206,花蓮縣,衛生福利部玉里醫院,花蓮縣玉里鎮中華路448號,03-8886141,V,V,V,V,V,V,V,,V,,V,V,V,V,V,,121.320848,23.34749
207,花蓮縣,國軍花蓮總醫院附設民眾診療服務處,花蓮縣新城鄉嘉里村嘉里路163號,03-8266694,V,V,V,V,V,V,V,,V,,V,V,V,V,V,,121.6074,24.024429
208,花蓮縣,臺北榮民總醫院鳳林分院,花蓮縣鳳林鎮鳳信里中正路一段2號,03-8764539,V,,,V,V,V,V,,,,V,V,V,V,V,,121.439215,23.727428
209,花蓮縣,臺北榮民總醫院玉里分院,花蓮縣玉里鎮泰昌里新興街91號,03-8883141,V,,,V,V,V,V,,,,V,V,V,V,V,,121.312031,23.339213
210,花蓮縣,佛教慈濟醫療財團法人花蓮慈濟醫院,花蓮縣花蓮市中央路三段707號,03-8561825,V,,V,V,V,V,V,,,,V,V,V,V,V,,121.592282,23.995729
211,花蓮縣,臺灣基督教門諾會醫療財團法人門諾醫院壽豐分院,花蓮縣壽豐鄉共和村魚池52號,03-8664600,,,,,,,,,,,V,V,,,,,121.507,23.864
212,臺東縣,衛生福利部臺東醫院,臺東縣臺東市文化里五權街1號,089-324112,V,V,V,V,V,V,V,,V,,V,V,V,V,V,,121.149852,22.757808
213,臺東縣,臺北榮民總醫院臺東分院,臺東縣臺東市南榮里更生路1000號,089-222995,V,,,V,,,,,,,V,V,,,V,,121.132431,22.772345
214,臺東縣,東基醫療財團法人台東基督教醫院,臺東縣臺東市開封街350號,089-960888,V,,V,V,,,V,,,,V,V,,,V,,121.146016,22.763821
215,澎湖縣,衛生福利部澎湖醫院,澎湖縣馬公市中正路10號,06-9261151,V,V,V,V,V,V,V,,V,,V,V,V,V,V,,119.565423,23.564553
216,金門縣,衛生福利部金門醫院,金門縣金湖鎮新市里復興路2號,082-332546,V,V,,V,V,V,V,,V,,V,V,V,V,V,,118.418001,24.440588
217,金門縣,曾杏榕診所,金門縣金湖鎮新湖里市港二路170號1樓,082-335666,,,,,,,,,,,V,V,,,V,,118.411332,24.437352
218,連江縣,連江縣立醫院,連江縣南竿鄉復興村217號,083-623995,V,,,,,,V,,,,,V,,,V,,119.949168,26.160844
